"","name","network","agent","start","end","open","lat","lon"
"1","Manapouri, West Arm Jetty Ews","I5752A",12482,1995-11-17,2024-08-24,TRUE,-45.52299,167.27485
"2","Albert Burn","I48391",35098,2008-01-25,2024-08-24,TRUE,-44.38112,168.92633
"3","Eglinton, Knobs Flat Cws","I48905",37382,2009-08-13,2024-08-24,TRUE,-44.97781,168.018
"4","Castle Mount Ews","F47873",38830,2011-04-14,2024-08-24,TRUE,-44.83407,167.77752
"5","Mt Larkins Ews","I48842",40257,2013-05-15,2024-08-24,TRUE,-44.88526,168.48044
"6","Five Rivers Cws","I58632",40845,2014-12-12,2024-08-24,TRUE,-45.6259,168.36702
"7","Te Anau At Park Hq Cws","I57477",41064,2015-07-10,2024-08-24,TRUE,-45.42214,167.71788
"8","Queenstown Ews","I58062",41331,2016-02-25,2024-08-24,TRUE,-45.03476,168.66364
"9","Milford Sound Ews","F47694",40987,2019-08-28,2024-08-24,TRUE,-44.67399,167.92299
"10","Manapouri Aero Aws","I57563",5430,1990-12-12,2024-08-23,TRUE,-45.53285,167.64162
"11","Queenstown Aero Aws","I58075",5451,1991-06-19,2024-08-23,TRUE,-45.01762,168.7402
"12","Secretary Island Aws","F56280",9533,1993-10-20,2024-08-23,TRUE,-45.22092,166.88498
"13","Milford Sound Aws","F47693",18309,2000-07-18,2024-08-23,TRUE,-44.6733,167.9243
"14","Murchison Mtns Ews","I57261",35614,2008-06-21,2024-08-23,TRUE,-45.22172,167.62988
"15","Takahe Valley Cws","I57262",37047,2009-05-15,2024-08-23,TRUE,-45.29644,167.68254
"16","Queenstown","I58061",5446,1871-08-31,2021-05-31,FALSE,-45.03476,168.66364
"17","Milford Sound","F47691",4107,1933-12-31,2019-10-09,FALSE,-44.67384,167.92406
"18","Manapouri,West Arm 2","I57522",5426,1971-12-31,1996-07-31,FALSE,-45.525,167.276
"19","Te Anau, Doc","I57473",5419,1972-01-01,1994-03-31,FALSE,-45.426,167.718
"20","Deep Cove 2","F57412",4138,1985-07-31,1994-01-31,FALSE,-45.467,167.152
"21","Queenstown Aero","I58074",5450,1971-12-31,1992-09-20,FALSE,-45.024,168.735
"22","Burwood Bush","I58502",5475,1986-10-07,1990-08-31,FALSE,-45.571,168.071
"23","Mt Luxmore","I57362",5413,1988-12-31,1989-12-31,FALSE,-45.388,167.619
"24","Iris Burn","I57451",5416,1988-11-30,1989-12-30,FALSE,-45.401,167.507
"25","Knobs Flat","I48901",5167,1982-08-31,1988-11-30,FALSE,-44.98,168.019
"26","Homer Tunnel Western","F47794",4118,1984-07-31,1988-11-30,FALSE,-44.764,167.974
"27","Homer Tunnel, Eastern","F47791",4115,1987-11-30,1988-11-30,FALSE,-44.765,167.994
"28","Gibbston Nevis Bluff","I58092",5456,1984-10-11,1987-05-31,FALSE,-45.041,168.979
"29","Takahe Valley","I57361",5412,1972-10-14,1987-05-30,FALSE,-45.299,167.681
"30","Borland Burn","I57751",5435,1974-10-31,1985-09-30,FALSE,-45.78,167.538
"31","Mid Dome","I58552",5479,1949-10-18,1976-10-31,FALSE,-45.571,168.504
"32","Borland Saddle","I57731",5434,1971-12-31,1972-04-30,FALSE,-45.733,167.367
"33","Nelson Aero","G13222",4241,1943-03-31,2024-08-24,TRUE,-41.299,173.226
"34","Blenheim Research Ews","G13495",12430,1996-05-31,2024-08-24,TRUE,-41.49891,173.96285
"35","Appleby 2 Ews","G13305",21937,2001-03-16,2024-08-24,TRUE,-41.31727,173.09482
"36","Takaka Ews","F02885",23849,2003-04-16,2024-08-24,TRUE,-40.86364,172.80568
"37","Arapito Ews","F12215",25777,2008-02-15,2024-08-24,TRUE,-41.27058,172.15568
"38","Wairau Valley, Mill Road Cws","G13543",36106,2008-09-22,2024-08-24,TRUE,-41.572,173.497
"39","Mahanga Ews","F22061",36857,2009-03-18,2024-08-24,TRUE,-42.01777,172.64677
"40","Richmond Ews","G13314",40751,2015-04-02,2024-08-24,TRUE,-41.32773,173.18615
"41","Kaikoura, Middle Creek","G23365",41125,2015-08-20,2024-08-24,TRUE,-42.36911,173.68037
"42","Farewell Spit Aws","F03502",3798,1981-12-31,2024-08-23,TRUE,-40.54483,173.00097
"43","Blenheim Aero Aws","G13585",4326,1990-09-07,2024-08-23,TRUE,-41.52135,173.86432
"44","Nelson Aero Aws","G13322",4271,1992-01-07,2024-08-23,TRUE,-41.30081,173.21608
"45","Cape Campbell Aws","G14722",4424,1999-08-31,2024-08-23,TRUE,-41.7265,174.2762
"46","Stephens Island Aws","G04602",26169,2018-09-18,2024-08-23,TRUE,-40.66511,173.99969
"47","Motueka, Riwaka Ews","G12195",12429,1995-03-31,2024-08-16,TRUE,-41.09798,172.97165
"48","Pelorus Sd, Crail Bay","G13195",4232,1982-05-04,2024-07-31,TRUE,-41.10308,173.96406
"49","Grassmere Salt Works","G14711",4420,1971-12-31,2024-03-31,FALSE,-41.729,174.145
"50","Stephens Island","G04601",4153,1972-12-31,2019-09-30,FALSE,-40.666,174.001
"51","Awatere Valley, Dashwood Raws","G14604",18468,2000-07-31,2013-09-11,FALSE,-41.64724,174.07274
"52","Arapito","F12213",3846,1978-05-09,2013-08-30,FALSE,-41.271,172.156
"53","Murchison Raws","F12839",16826,1998-04-29,2013-06-25,FALSE,-41.805,172.324
"54","St Arnaud Raws","F12885",31850,2006-12-06,2012-07-30,FALSE,-41.80779,172.84213
"55","Takaka, Kotinga 2","F02883",3789,1985-11-30,2012-06-30,FALSE,-40.882,172.801
"56","Maud Island","G13083",13585,1996-12-31,2011-06-30,FALSE,-41.025,173.896
"57","Lake Rotoiti 2","F12882",3892,1971-12-31,2006-02-28,FALSE,-41.80779,172.84213
"58","Seddon, Lucknow","G14703",11699,1999-04-01,2005-08-31,FALSE,-41.7225,174.07537
"59","Appleby Ews","G13212",12755,1996-09-24,2000-06-06,FALSE,-41.293,173.099
"60","Murchison Area School","F12837",3879,1989-01-31,1997-09-29,FALSE,-41.802,172.327
"61","Appleby","G13211",4239,1940-12-31,1996-12-12,FALSE,-41.293,173.099
"62","Blenheim Research","G13494",4310,1985-07-31,1996-05-31,FALSE,-41.498,173.963
"63","Motueka, Riwaka","G12191",4162,1971-12-31,1995-03-30,FALSE,-41.098,172.972
"64","Molesworth Aws","G23022",7427,1992-05-01,1994-08-23,FALSE,-42.087,173.26
"65","Brancott Valley","G13584",4325,1981-12-31,1994-01-31,FALSE,-41.545,173.845
"66","Lake Rotoroa","F12752",3862,1978-12-31,1993-12-23,FALSE,-41.797,172.59
"67","Molesworth","G23021",4461,1949-12-31,1993-01-30,FALSE,-42.088,173.258
"68","Totaranui 2","F03801",3799,1978-04-04,1989-12-31,FALSE,-40.825,172.999
"69","Spray Point Waihopai","G13741",4365,1987-03-31,1989-01-31,FALSE,-41.736,173.425
"70","Wairau Valley","G13553",4320,1984-07-31,1988-07-31,FALSE,-41.563,173.537
"71","Cobb Dam","F12162",3841,1971-12-31,1988-03-22,FALSE,-41.109,172.686
"72","Awatere Valley, Duntroon","G13871",4380,1984-08-06,1987-10-31,FALSE,-41.816,173.765
"73","Tapawera, Golden Downs","G12382",4177,1978-12-31,1987-07-30,FALSE,-41.392,172.807
"74","Rai Valley","G13251",4250,1971-12-31,1987-05-31,FALSE,-41.23,173.581
"75","Blenheim Aero","G13581",4322,1971-12-31,1987-03-31,FALSE,-41.52,173.872
"76","Cape Campbell","G14721",4423,1971-12-31,1986-09-24,FALSE,-41.731,174.274
"77","Moutere Hills","G13301",4260,1967-05-31,1986-05-31,FALSE,-41.359,173.075
"78","Waihopai Power Stn","G13651",4344,1971-12-31,1986-05-31,FALSE,-41.665,173.575
"79","Blenheim,Wither Hills","G13595",4333,1971-12-31,1986-04-30,FALSE,-41.543,173.961
"80","Kaikoura Flats","G23364",4498,1981-04-30,1986-01-31,FALSE,-42.381,173.657
"81","Blenheim","G13592",4331,1947-02-28,1985-08-31,FALSE,-41.511,173.954
"82","Vernon Lagoon","G14501",4411,1971-12-31,1984-06-30,FALSE,-41.533,174.033
"83","Farewell Spit","F03501",3797,1971-12-31,1984-06-27,FALSE,-40.549,173.008
"84","Karamea 2","F12214",3847,1978-05-11,1980-11-30,FALSE,-41.253,172.111
"85","Golden Downs Forest","G12581",4196,1929-12-31,1980-03-31,FALSE,-41.548,172.883
"86","Moutere Hills No2","G13302",4261,1976-12-31,1977-12-31,FALSE,-41.362,173.079
"87","Murchison School","F12835",3877,1971-12-31,1976-11-30,FALSE,-41.8,172.327
"88","Black Birch Range","G13783",4373,1971-12-31,1976-09-30,FALSE,-41.75,173.803
"89","Black Birch Observ.","G13772",4369,1975-12-31,1976-06-30,FALSE,-41.755,173.777
"90","Brightlands Bay","G13081",4211,1971-12-31,1976-04-30,FALSE,-41.066,173.857
"91","Elie Bay","G13194",4231,1972-09-18,1974-07-31,FALSE,-41.129,173.992
"92","Nelson","G13231",4244,1862-06-30,1920-12-31,FALSE,-41.275,173.295
"93","Nelson Aero","G13222",4241,1943-03-31,2024-08-24,TRUE,-41.299,173.226
"94","Blenheim Research Ews","G13495",12430,1996-05-31,2024-08-24,TRUE,-41.49891,173.96285
"95","Appleby 2 Ews","G13305",21937,2001-03-16,2024-08-24,TRUE,-41.31727,173.09482
"96","Baring Head","D14482",18234,2001-09-17,2024-08-24,TRUE,-41.40828,174.87146
"97","Wairau Valley, Mill Road Cws","G13543",36106,2008-09-22,2024-08-24,TRUE,-41.572,173.497
"98","Upper Hutt, Trentham Ews","E1510M",40750,2015-01-03,2024-08-24,TRUE,-41.14027,175.04283
"99","Richmond Ews","G13314",40751,2015-04-02,2024-08-24,TRUE,-41.32773,173.18615
"100","Kaikoura, Middle Creek","G23365",41125,2015-08-20,2024-08-24,TRUE,-42.36911,173.68037
"101","Wellington, Greta Point Cws","E1438H",41212,2015-10-14,2024-08-24,TRUE,-41.30243,174.80574
"102","Wellington Aero","E14387",3445,1971-12-31,2024-08-23,TRUE,-41.322,174.804
"103","Blenheim Aero Aws","G13585",4326,1990-09-07,2024-08-23,TRUE,-41.52135,173.86432
"104","Kaikoura Aws","G23464",4506,1991-04-08,2024-08-23,TRUE,-42.42038,173.69627
"105","Nelson Aero Aws","G13322",4271,1992-01-07,2024-08-23,TRUE,-41.30081,173.21608
"106","Cape Campbell Aws","G14722",4424,1999-08-31,2024-08-23,TRUE,-41.7265,174.2762
"107","Wellington, Kelburn Aws","E1427P",25354,2004-04-28,2024-08-23,TRUE,-41.28445,174.76794
"108","Mana Island Aws","E14073",25531,2006-11-23,2024-08-23,TRUE,-41.08676,174.77996
"109","Wellington Aero Backup Aws","E1438I",41229,2013-10-03,2024-08-23,TRUE,-41.3313,174.80566
"110","Stephens Island Aws","G04602",26169,2018-09-18,2024-08-23,TRUE,-40.66511,173.99969
"111","Brothers Island Aws","G14142",4395,1997-02-14,2024-08-22,TRUE,-41.1033,174.44174
"112","Porirua, Elsdon Park Aws","E1418H",41559,2017-04-29,2024-08-20,TRUE,-41.12683,174.83531
"113","Motueka, Riwaka Ews","G12195",12429,1995-03-31,2024-08-16,TRUE,-41.09798,172.97165
"114","Pelorus Sd, Crail Bay","G13195",4232,1982-05-04,2024-07-31,TRUE,-41.10308,173.96406
"115","Grassmere Salt Works","G14711",4420,1971-12-31,2024-03-31,FALSE,-41.729,174.145
"116","Stephens Island","G04601",4153,1972-12-31,2019-09-30,FALSE,-40.666,174.001
"117","Mana Island","E14072",3334,1987-08-31,2018-07-30,FALSE,-41.09429,174.78517
"118","Wallaceville Ews","E1510G",17029,1998-12-10,2015-08-17,FALSE,-41.1354,175.05275
"119","Awatere Valley, Dashwood Raws","G14604",18468,2000-07-31,2013-09-11,FALSE,-41.64724,174.07274
"120","Kaikoura Aero","G23451",39481,2012-08-15,2013-02-19,FALSE,-42.426,173.599
"121","St Arnaud Raws","F12885",31850,2006-12-06,2012-07-30,FALSE,-41.80779,172.84213
"122","Maud Island","G13083",13585,1996-12-31,2011-06-30,FALSE,-41.025,173.896
"123","Wallaceville","E15102",3477,1971-12-31,2006-08-31,FALSE,-41.135,175.052
"124","Lake Rotoiti 2","F12882",3892,1971-12-31,2006-02-28,FALSE,-41.80779,172.84213
"125","Wellington, Kelburn","E14272",3385,1930-12-31,2005-08-31,FALSE,-41.286,174.767
"126","Seddon, Lucknow","G14703",11699,1999-04-01,2005-08-31,FALSE,-41.7225,174.07537
"127","Appleby Ews","G13212",12755,1996-09-24,2000-06-06,FALSE,-41.293,173.099
"128","Appleby","G13211",4239,1940-12-31,1996-12-12,FALSE,-41.293,173.099
"129","Blenheim Research","G13494",4310,1985-07-31,1996-05-31,FALSE,-41.498,173.963
"130","Motueka, Riwaka","G12191",4162,1971-12-31,1995-03-30,FALSE,-41.098,172.972
"131","Molesworth Aws","G23022",7427,1992-05-01,1994-08-23,FALSE,-42.087,173.26
"132","Wainuiomata Coast Rd","E14296",3424,1971-12-31,1994-01-31,FALSE,-41.291,174.95
"133","Brancott Valley","G13584",4325,1981-12-31,1994-01-31,FALSE,-41.545,173.845
"134","Molesworth","G23021",4461,1949-12-31,1993-01-30,FALSE,-42.088,173.258
"135","Lower Hutt,Gracefield","E14290",3418,1971-12-31,1992-06-28,FALSE,-41.236,174.919
"136","Kaikoura Weather Stn","G23471",4507,1971-12-31,1991-09-18,FALSE,-42.421,173.691
"137","Lower Hutt,Avalon","E14195",3369,1971-12-31,1991-04-30,FALSE,-41.191,174.941
"138","Totaranui 2","F03801",3799,1978-04-04,1989-12-31,FALSE,-40.825,172.999
"139","Rimutaka Forest","E14393",3450,1982-04-12,1989-12-31,FALSE,-41.356,174.911
"140","Somes Is","E14285",3399,1975-02-04,1989-05-31,FALSE,-41.26,174.864
"141","Spray Point Waihopai","G13741",4365,1987-03-31,1989-01-31,FALSE,-41.736,173.425
"142","Wairau Valley","G13553",4320,1984-07-31,1988-07-31,FALSE,-41.563,173.537
"143","Titahi Bay,Te Pene Av","E14187",3361,1981-11-10,1988-05-31,FALSE,-41.118,174.836
"144","Awatere Valley, Duntroon","G13871",4380,1984-08-06,1987-10-31,FALSE,-41.816,173.765
"145","Tapawera, Golden Downs","G12382",4177,1978-12-31,1987-07-30,FALSE,-41.392,172.807
"146","Rai Valley","G13251",4250,1971-12-31,1987-05-31,FALSE,-41.23,173.581
"147","Wellington High, D Pk","E1427H",3382,1979-12-31,1987-04-30,FALSE,-41.263,174.784
"148","Paraparaumu Edr","E04993",3147,1985-05-01,1987-04-30,FALSE,-40.905,174.982
"149","Blenheim Aero","G13581",4322,1971-12-31,1987-03-31,FALSE,-41.52,173.872
"150","Kapiti Island","E04891",3144,1971-12-31,1987-02-28,FALSE,-40.85463,174.93163
"151","Cape Campbell","G14721",4423,1971-12-31,1986-09-24,FALSE,-41.731,174.274
"152","Moutere Hills","G13301",4260,1967-05-31,1986-05-31,FALSE,-41.359,173.075
"153","Waihopai Power Stn","G13651",4344,1971-12-31,1986-05-31,FALSE,-41.665,173.575
"154","Blenheim,Wither Hills","G13595",4333,1971-12-31,1986-04-30,FALSE,-41.543,173.961
"155","Kaikoura Flats","G23364",4498,1981-04-30,1986-01-31,FALSE,-42.381,173.657
"156","Blenheim","G13592",4331,1947-02-28,1985-08-31,FALSE,-41.511,173.954
"157","Vernon Lagoon","G14501",4411,1971-12-31,1984-06-30,FALSE,-41.533,174.033
"158","Lower Hutt,Taita","E14192",3366,1971-12-31,1982-10-31,FALSE,-41.182,174.964
"159","Golden Downs Forest","G12581",4196,1929-12-31,1980-03-31,FALSE,-41.548,172.883
"160","Porirua","E14185",3359,1971-12-31,1980-03-31,FALSE,-41.149,174.857
"161","Wellington,Karori","E14279",3392,1971-12-31,1979-12-31,FALSE,-41.284,174.737
"162","Pauatahanui","E14197",3371,1972-01-02,1978-07-31,FALSE,-41.109,174.91
"163","Moutere Hills No2","G13302",4261,1976-12-31,1977-12-31,FALSE,-41.362,173.079
"164","Black Birch Range","G13783",4373,1971-12-31,1976-09-30,FALSE,-41.75,173.803
"165","Black Birch Observ.","G13772",4369,1975-12-31,1976-06-30,FALSE,-41.755,173.777
"166","Brightlands Bay","G13081",4211,1971-12-31,1976-04-30,FALSE,-41.066,173.857
"167","Makara","E14273",3386,1971-12-31,1975-08-31,FALSE,-41.253,174.694
"168","Elie Bay","G13194",4231,1972-09-18,1974-07-31,FALSE,-41.129,173.992
"169","Mangaroa At Tasman Vaccine","E15204",3496,1971-12-31,1972-08-30,FALSE,-41.195,175.015
"170","Nelson","G13231",4244,1862-06-30,1920-12-31,FALSE,-41.275,173.295
"171","Hanmer Forest Ews","G22582",11234,1995-05-03,2024-08-24,TRUE,-42.53433,172.85098
"172","Blenheim Research Ews","G13495",12430,1996-05-31,2024-08-24,TRUE,-41.49891,173.96285
"173","Cheviot Ews","H23825",31832,2007-07-19,2024-08-24,TRUE,-42.82722,173.22409
"174","Wairau Valley, Mill Road Cws","G13543",36106,2008-09-22,2024-08-24,TRUE,-41.572,173.497
"175","Waiau School Cws","H23605",36157,2008-09-25,2024-08-24,TRUE,-42.653,173.043
"176","Mahanga Ews","F22061",36857,2009-03-18,2024-08-24,TRUE,-42.01777,172.64677
"177","Kaikoura, Middle Creek","G23365",41125,2015-08-20,2024-08-24,TRUE,-42.36911,173.68037
"178","Medbury Cws","H22863",41282,2015-12-03,2024-08-24,TRUE,-42.88031,172.68964
"179","Balmoral East Cws","H22881",42704,2017-06-29,2024-08-24,TRUE,-42.83025,172.83463
"180","Blenheim Aero Aws","G13585",4326,1990-09-07,2024-08-23,TRUE,-41.52135,173.86432
"181","Kaikoura Aws","G23464",4506,1991-04-08,2024-08-23,TRUE,-42.42038,173.69627
"182","Cape Campbell Aws","G14722",4424,1999-08-31,2024-08-23,TRUE,-41.7265,174.2762
"183","Culverden Aws","H22785",37651,2009-10-06,2024-08-23,TRUE,-42.77014,172.88947
"184","Grassmere Salt Works","G14711",4420,1971-12-31,2024-03-31,FALSE,-41.729,174.145
"185","Balmoral West Cws","H22753",43342,2017-03-15,2018-09-30,FALSE,-42.79389,172.57015
"186","Awatere Valley, Dashwood Raws","G14604",18468,2000-07-31,2013-09-11,FALSE,-41.64724,174.07274
"187","Kaikoura Aero","G23451",39481,2012-08-15,2013-02-19,FALSE,-42.426,173.599
"188","St Arnaud Raws","F12885",31850,2006-12-06,2012-07-30,FALSE,-41.80779,172.84213
"189","Culverden","H22783",4527,1983-01-13,2009-11-29,FALSE,-42.77382,172.85112
"190","Lake Rotoiti 2","F12882",3892,1971-12-31,2006-02-28,FALSE,-41.80779,172.84213
"191","Seddon, Lucknow","G14703",11699,1999-04-01,2005-08-31,FALSE,-41.7225,174.07537
"192","Blenheim Research","G13494",4310,1985-07-31,1996-05-31,FALSE,-41.498,173.963
"193","Cheviot","H23822",4566,1982-11-01,1995-10-31,FALSE,-42.812,173.277
"194","Hanmer Forest","G22581",4458,1971-12-31,1995-03-31,FALSE,-42.522,172.854
"195","Molesworth Aws","G23022",7427,1992-05-01,1994-08-23,FALSE,-42.087,173.26
"196","Brancott Valley","G13584",4325,1981-12-31,1994-01-31,FALSE,-41.545,173.845
"197","Molesworth","G23021",4461,1949-12-31,1993-01-30,FALSE,-42.088,173.258
"198","Kaikoura Weather Stn","G23471",4507,1971-12-31,1991-09-18,FALSE,-42.421,173.691
"199","Balmoral Forest","H22871",4532,1929-12-31,1991-01-31,FALSE,-42.866,172.749
"200","Waiau, Lyndon St","H23604",4555,1984-03-31,1989-12-31,FALSE,-42.66,173.041
"201","Spray Point Waihopai","G13741",4365,1987-03-31,1989-01-31,FALSE,-41.736,173.425
"202","Wairau Valley","G13553",4320,1984-07-31,1988-07-31,FALSE,-41.563,173.537
"203","Awatere Valley, Duntroon","G13871",4380,1984-08-06,1987-10-31,FALSE,-41.816,173.765
"204","Rai Valley","G13251",4250,1971-12-31,1987-05-31,FALSE,-41.23,173.581
"205","Blenheim Aero","G13581",4322,1971-12-31,1987-03-31,FALSE,-41.52,173.872
"206","Waipara","H32073",4797,1972-12-31,1987-02-28,FALSE,-43.066,172.754
"207","Cape Campbell","G14721",4423,1971-12-31,1986-09-24,FALSE,-41.731,174.274
"208","Waihopai Power Stn","G13651",4344,1971-12-31,1986-05-31,FALSE,-41.665,173.575
"209","Blenheim,Wither Hills","G13595",4333,1971-12-31,1986-04-30,FALSE,-41.543,173.961
"210","Kaikoura Flats","G23364",4498,1981-04-30,1986-01-31,FALSE,-42.381,173.657
"211","Blenheim","G13592",4331,1947-02-28,1985-08-31,FALSE,-41.511,173.954
"212","Vernon Lagoon","G14501",4411,1971-12-31,1984-06-30,FALSE,-41.533,174.033
"213","Waiau, Clarence St","H23603",4554,1974-11-12,1984-03-31,FALSE,-42.656,173.042
"214","Hawarden 2","H22962",4543,1978-02-28,1982-02-28,FALSE,-42.908,172.635
"215","Golden Downs Forest","G12581",4196,1929-12-31,1980-03-31,FALSE,-41.548,172.883
"216","Black Birch Range","G13783",4373,1971-12-31,1976-09-30,FALSE,-41.75,173.803
"217","Black Birch Observ.","G13772",4369,1975-12-31,1976-06-30,FALSE,-41.755,173.777
"218","Balmoral","H22862",4531,1927-07-08,1949-12-31,FALSE,-42.833,172.683
"219","Mt Cook Ews","H30706",18125,2000-03-30,2024-08-24,TRUE,-43.73633,170.0977
"220","Franz Josef Ews","F30313",24926,2003-05-31,2024-08-24,TRUE,-43.36548,170.13428
"221","Lake Tekapo Ews","H40042",24945,2003-06-19,2024-08-24,TRUE,-44.00173,170.44319
"222","Ivory Glacier Cws","F30192",36733,2009-02-04,2024-08-24,TRUE,-43.13409,170.91264
"223","Mt Potts Ews","H30592",37002,2009-05-12,2024-08-24,TRUE,-43.50495,170.92635
"224","Upper Rakaia Ews","H30291",38225,2010-06-29,2024-08-24,TRUE,-43.29206,170.99523
"225","Okarito Ews","F30213",44556,2020-12-12,2024-08-24,TRUE,-43.22161,170.16346
"226","Lake Moeraki Ews","F39722",25506,2022-11-18,2024-08-24,TRUE,-43.71882,169.26703
"227","Haast Aws","F39803",4097,1981-12-31,2024-08-23,TRUE,-43.86003,169.00652
"228","Tara Hills Aws","I49592",5212,1985-04-30,2024-08-23,TRUE,-44.52612,169.88948
"229","Pukaki Aerodrome Aws","H40214",36596,2008-12-13,2024-08-23,TRUE,-44.24519,170.11671
"230","Fairlie Aws","H40075",37255,2009-05-07,2024-08-23,TRUE,-44.03774,170.77051
"231","Mueller Hut Ews","H30709",38102,2010-04-14,2024-08-23,TRUE,-43.72154,170.06493
"232","Mt Cook Aero Aws","H30715",41165,2012-09-07,2024-08-23,TRUE,-43.76507,170.1315
"233","Franz Josef @ Crawford Knob","F3042C",44374,2024-04-05,2024-08-23,TRUE,-43.46517,170.20631
"234","Lake Tekapo, Air Safaris","H40041",4970,1927-12-31,2024-07-31,TRUE,-44.002,170.441
"235","Peel Forest","H31927",4772,1973-09-11,2024-07-31,TRUE,-43.90656,171.25902
"236","Hakataramea Valley Cws","H40661",36209,2008-10-24,2022-05-31,FALSE,-44.63466,170.64731
"237","Okarito","F30212",4053,1982-11-30,2019-01-31,FALSE,-43.22137,170.16533
"238","Franz Josef","F30312",4060,1982-01-02,2015-12-31,FALSE,-43.394,170.181
"239","St Bathans, Post Office","I49884",18225,2000-05-05,2010-11-14,FALSE,-44.87336,169.81084
"240","Woodbury 2","H41025",7727,1992-11-03,2010-11-11,FALSE,-44.0353,171.20693
"241","Fairlie 2","H40185",7726,1992-11-05,2009-08-01,FALSE,-44.10263,170.82531
"242","Twizel 2","H40213",4997,1991-10-28,2002-07-01,FALSE,-44.264,170.103
"243","Mt Cook,The Hermitage","H30711",4591,1929-04-30,2000-02-29,FALSE,-43.734,170.093
"244","St Bathans 3","I49883",5239,1992-08-07,1999-02-26,FALSE,-44.875,169.823
"245","Benmore Power Stn","I40511",5113,1986-07-09,1997-05-31,FALSE,-44.569,170.19
"246","Pukekura","F30061",4031,1982-11-26,1995-05-30,FALSE,-43.012,170.671
"247","Fox Glacier,Main Rd","F30402",4069,1973-06-30,1994-02-28,FALSE,-43.466,170.017
"248","Kurow Area School","I40742",5122,1979-12-31,1994-01-31,FALSE,-44.733,170.467
"249","Twizel Substation","H40212",4996,1985-03-31,1991-12-31,FALSE,-44.277,170.098
"250","Fairlie,Riverview Tce","H40183",4992,1979-02-28,1990-05-31,FALSE,-44.101,170.833
"251","Geraldine N.Z.F.S.","H41127",5060,1974-11-30,1989-06-30,FALSE,-44.102,171.239
"252","Aviemore 2","I40631",5118,1983-08-24,1988-09-12,FALSE,-44.659,170.353
"253","Mt John","H30941",4630,1962-12-31,1987-12-31,FALSE,-43.987,170.464
"254","Tasman Saddle Aws","H30532",4578,1985-06-02,1987-10-30,FALSE,-43.514,170.342
"255","Harihari N.Z.F.S.","F30153",4044,1971-12-31,1987-02-26,FALSE,-43.144,170.553
"256","Twizel","H40211",4995,1972-02-03,1986-05-31,FALSE,-44.249,170.092
"257","Omarama,Tara Hills","I49591",5211,1949-10-23,1985-12-31,FALSE,-44.529,169.888
"258","Lake Pukaki M.W.D.","H40112",4981,1971-12-31,1984-12-31,FALSE,-44.181,170.132
"259","Franz Josef T.H.C.","F30311",4059,1953-06-30,1983-09-30,FALSE,-43.379,170.178
"260","Fairlie","H40182",4991,1971-12-31,1978-07-31,FALSE,-44.105,170.824
"261","Otiake Farm","I40751",5123,1972-12-07,1978-04-16,FALSE,-44.779,170.512
"262","Haast","F39801",4095,1949-10-03,1976-08-31,FALSE,-43.862,169.008
"263","Godley Peaks, Tekapo","H30841",4616,1969-09-30,1976-04-22,FALSE,-43.865,170.472
"264","Haldon Station","H40321",5002,1972-02-29,1974-04-30,FALSE,-44.358,170.264
"265","Hanmer Forest Ews","G22582",11234,1995-05-03,2024-08-24,TRUE,-42.53433,172.85098
"266","Rangiora Ews","H32364",17244,1999-02-17,2024-08-24,TRUE,-43.32858,172.61114
"267","Lincoln, Broadfield Ews","H32645",17603,1999-06-30,2024-08-24,TRUE,-43.62622,172.4704
"268","Christchurch, Kyle St Ews","H3256F",24120,2002-10-31,2024-08-24,TRUE,-43.53074,172.60769
"269","Waipara West Ews","H32063",26607,2006-09-17,2024-08-24,TRUE,-43.07026,172.65344
"270","Cheviot Ews","H23825",31832,2007-07-19,2024-08-24,TRUE,-42.82722,173.22409
"271","Waiau School Cws","H23605",36157,2008-09-25,2024-08-24,TRUE,-42.653,173.043
"272","Akaroa Ews","H32895",36593,2008-12-20,2024-08-24,TRUE,-43.80938,172.96574
"273","Lismore, Racemans House Cws","H31944",39845,2012-09-07,2024-08-24,TRUE,-43.9207,171.4856
"274","Diamond Harbour Ews","H32674",40985,2015-09-18,2024-08-24,TRUE,-43.63312,172.72808
"275","Wakanui 2 Cws","H31986",41200,2015-11-03,2024-08-24,TRUE,-43.97167,171.81097
"276","Medbury Cws","H22863",41282,2015-12-03,2024-08-24,TRUE,-42.88031,172.68964
"277","Balmoral East Cws","H22881",42704,2017-06-29,2024-08-24,TRUE,-42.83025,172.83463
"278","Winchmore 2 Ews","H31772",42899,2017-06-30,2024-08-24,TRUE,-43.78935,171.79032
"279","Ohoka Cws","H32359",43251,2017-09-23,2024-08-24,TRUE,-43.3423,172.56574
"280","Bromley Ews","H3257J",43967,2019-10-23,2024-08-24,TRUE,-43.52828,172.72096
"281","Cass Ews","H31073",44637,2021-03-10,2024-08-24,TRUE,-43.03447,171.75999
"282","Christchurch Botanic Gardens Ews","H3256Q",44763,2021-10-09,2024-08-24,TRUE,-43.5294,172.62
"283","Waipara North Branch Ews","H22945",45225,2022-04-30,2024-08-24,TRUE,-42.94096,172.42789
"284","Lincoln, Broadfield Ews 2","H32647",45751,2023-06-28,2024-08-24,TRUE,-43.62285,172.46918
"285","Te Pirita At Sharlands Road","H31682",45761,2023-07-18,2024-08-24,TRUE,-43.63482,171.89685
"286","Christchurch Aero","H32451",4843,1953-12-31,2024-08-23,TRUE,-43.493,172.537
"287","Le Bons Bay Aws","H33712",4960,1984-01-17,2024-08-23,TRUE,-43.7461,173.1219
"288","Ashburton Aero Aws","H31983",26170,2006-02-10,2024-08-23,TRUE,-43.90328,171.80413
"289","Sugar Loaf Aws","H32669",35136,2008-01-26,2024-08-23,TRUE,-43.60369,172.64928
"290","Culverden Aws","H22785",37651,2009-10-06,2024-08-23,TRUE,-42.77014,172.88947
"291","Christchurch Aero Backup Aws","H32455",41230,2013-08-14,2024-08-23,TRUE,-43.48901,172.52841
"292","Methven Cws","H31665",36645,2008-12-24,2024-08-21,TRUE,-43.63978,171.65205
"293","Christchurch Gardens","H32561",4858,1863-11-30,2024-07-31,TRUE,-43.531,172.619
"294","Ashburton Council","H31971",4778,1927-12-31,2024-07-31,TRUE,-43.89658,171.7472
"295","Chertsey Cws","H31793",39661,2012-07-13,2024-07-23,FALSE,-43.79393,171.9607
"296","Boyle River Lodge","G22532",4455,1983-10-09,2024-06-30,FALSE,-42.519,172.386
"297","Waipara North Branch At Langs Gully Cws","H22942",38730,2011-02-03,2022-01-02,FALSE,-42.93849,172.42165
"298","Methven, Three Springs Cws","H31656",37920,2010-01-30,2021-09-29,FALSE,-43.67767,171.5884
"299","Dorie Cws At Riverstone","H32805",38866,2010-09-01,2021-09-29,FALSE,-43.83207,172.09431
"300","West Eyreton, Larundel Farm Cws","H32341",39224,2011-10-28,2021-09-29,FALSE,-43.3573,172.43224
"301","Balmoral West Cws","H22753",43342,2017-03-15,2018-09-30,FALSE,-42.79389,172.57015
"302","Eyrewell, Ngai Tahu West Cws","H32417",40743,2015-05-27,2018-06-19,FALSE,-43.41296,172.18651
"303","Eyrewell, Ngai Tahu East Cws","H32443",40744,2016-09-01,2018-06-19,FALSE,-43.43009,172.44235
"304","Winchmore Ews","H31883",4764,1949-10-16,2018-05-21,FALSE,-43.79346,171.79512
"305","Snowdon Raws","H31463",17610,1999-06-15,2017-11-30,FALSE,-43.47,171.672
"306","Leeston Raws","H32735",39066,2011-03-19,2017-11-27,FALSE,-43.76153,172.30495
"307","Christchurch, New Brighton Pier Aws","H3257F",37654,2009-08-28,2016-08-23,FALSE,-43.506,172.735
"308","Lyttelton Harbour","H32671",4903,2004-06-11,2015-09-13,FALSE,-43.608,172.724
"309","Darfield, Forest Plains Raws","H32403",39063,2011-05-16,2015-05-11,FALSE,-43.47962,172.08417
"310","Darfield","H32412",4836,1971-12-31,2015-03-31,FALSE,-43.493,172.137
"311","Wakanui Cws","H31984",38974,2011-07-08,2014-08-09,FALSE,-43.97167,171.81097
"312","Craigieburn Forest","H31172",4651,1963-12-31,2013-08-31,FALSE,-43.154,171.714
"313","Leeston, Harts Creek Cws","H32734",37332,2009-08-21,2012-04-04,FALSE,-43.7894,172.31158
"314","Hororata, Illana","H31594",10617,1994-10-09,2011-08-31,FALSE,-43.52822,171.94615
"315","Darfield Ews","H32416",17609,1999-11-11,2011-02-13,FALSE,-43.496,172.15
"316","Culverden","H22783",4527,1983-01-13,2009-11-29,FALSE,-42.77382,172.85112
"317","Harper River","H31241",4657,1987-12-09,2007-12-31,FALSE,-43.213,171.461
"318","Akaroa,Rue Lavaud","H32893",4951,1977-12-07,2007-12-25,FALSE,-43.80418,172.96997
"319","Cheviot, The Lakes","H23823",12715,1996-09-30,2007-06-29,FALSE,-42.83198,172.22655
"320","Waipara West","H32062",4794,1990-04-30,2006-05-30,FALSE,-43.06886,172.65301
"321","Lincoln, Broadfield Edl","H32642",4882,1987-05-31,2000-05-03,FALSE,-43.628,172.468
"322","Rangiora Nzfs","H32352",4827,1971-12-31,1998-04-30,FALSE,-43.311,172.571
"323","Lake Coleridge","H31352",4670,1917-08-01,1996-08-30,FALSE,-43.365,171.529
"324","Cheviot","H23822",4566,1982-11-01,1995-10-31,FALSE,-42.812,173.277
"325","Hanmer Forest","G22581",4458,1971-12-31,1995-03-31,FALSE,-42.522,172.854
"326","Christchurch, Mt Pleasant","H32574",4871,1971-12-31,1994-01-31,FALSE,-43.569,172.721
"327","Mt Hutt Skifield","H31451",4677,1980-07-19,1993-10-16,FALSE,-43.491,171.537
"328","Hororata Substation","H31593",4704,1960-03-31,1993-09-02,FALSE,-43.547,171.981
"329","Balmoral Forest","H22871",4532,1929-12-31,1991-01-31,FALSE,-42.866,172.749
"330","Ashburton","H31973",4780,1985-01-08,1990-12-30,FALSE,-43.90928,171.74409
"331","Highbank Power Stn","H31572",4698,1953-11-30,1990-10-31,FALSE,-43.575,171.736
"332","Christchurch,Bromley","H32573",4870,1971-12-31,1990-02-28,FALSE,-43.527,172.702
"333","Waiau, Lyndon St","H23604",4555,1984-03-31,1989-12-31,FALSE,-42.66,173.041
"334","Ashley Forest 1","H32252",4818,1971-12-31,1989-12-30,FALSE,-43.245,172.59
"335","Eyrewell Forest","H32424",4842,1971-12-31,1989-12-30,FALSE,-43.397,172.278
"336","Lincoln","H32641",4881,1880-12-31,1987-12-31,FALSE,-43.648,172.463
"337","Waipara","H32073",4797,1972-12-31,1987-02-28,FALSE,-43.066,172.754
"338","Ski Basin","H31162",4647,1966-06-30,1986-09-26,FALSE,-43.129,171.682
"339","Ski Basin Edl","H31163",4648,1985-04-30,1986-08-31,FALSE,-43.129,171.682
"340","Quail Island","H32663",4896,1983-07-31,1986-07-30,FALSE,-43.631,172.695
"341","Templeton","H32542",4848,1977-12-31,1986-05-30,FALSE,-43.549,172.463
"342","Waiau, Clarence St","H23603",4554,1974-11-12,1984-03-31,FALSE,-42.656,173.042
"343","Hawarden 2","H22962",4543,1978-02-28,1982-02-28,FALSE,-42.908,172.635
"344","Lincoln No3","H32643",4883,1975-07-15,1978-08-31,FALSE,-43.646,172.463
"345","Christchurch Airport","H32555",4852,1975-05-31,1976-04-30,FALSE,-43.493,172.537
"346","Camp Stream","H31173",4652,1966-06-30,1974-08-25,FALSE,-43.13,171.706
"347","Onawe Duvauchelle Bay","H32791",4928,1971-12-31,1972-12-31,FALSE,-43.762,172.925
"348","Balmoral","H22862",4531,1927-07-08,1949-12-31,FALSE,-42.833,172.683
"349","Bealey","H31061",4638,1867-05-31,1880-06-30,FALSE,-43.017,171.6
"350","Mt Cook Ews","H30706",18125,2000-03-30,2024-08-24,TRUE,-43.73633,170.0977
"351","Ranfurly Ews","I50115",18593,2000-11-22,2024-08-24,TRUE,-45.12427,170.10045
"352","Windsor Ews","I50087",18594,2000-11-23,2024-08-24,TRUE,-45.00829,170.82281
"353","Franz Josef Ews","F30313",24926,2003-05-31,2024-08-24,TRUE,-43.36548,170.13428
"354","Lake Tekapo Ews","H40042",24945,2003-06-19,2024-08-24,TRUE,-44.00173,170.44319
"355","Timaru Ews","H41425",35703,2008-06-17,2024-08-24,TRUE,-44.40882,171.25434
"356","Orari Estate Ews","H41132",35704,2008-07-10,2024-08-24,TRUE,-44.12476,171.31075
"357","Ivory Glacier Cws","F30192",36733,2009-02-04,2024-08-24,TRUE,-43.13409,170.91264
"358","Waimate Cws","H41702",36914,2009-04-07,2024-08-24,TRUE,-44.74127,171.0631
"359","Mt Potts Ews","H30592",37002,2009-05-12,2024-08-24,TRUE,-43.50495,170.92635
"360","Upper Rakaia Ews","H30291",38225,2010-06-29,2024-08-24,TRUE,-43.29206,170.99523
"361","Lismore, Racemans House Cws","H31944",39845,2012-09-07,2024-08-24,TRUE,-43.9207,171.4856
"362","Oamaru Ews","I51003",40986,2015-09-12,2024-08-24,TRUE,-45.05679,171.02261
"363","Mayfield At Ruapuna Forecast","H31827",43538,2018-07-27,2024-08-24,TRUE,-43.85887,171.29938
"364","Okarito Ews","F30213",44556,2020-12-12,2024-08-24,TRUE,-43.22161,170.16346
"365","Tara Hills Aws","I49592",5212,1985-04-30,2024-08-23,TRUE,-44.52612,169.88948
"366","Timaru Aero Aws","H41325",5086,1990-06-03,2024-08-23,TRUE,-44.30517,171.22141
"367","Oamaru Airport Aws","I41902",5142,1999-09-30,2024-08-23,TRUE,-44.97212,171.08108
"368","Oamaru Aws","I50194",25937,2005-09-22,2024-08-23,TRUE,-45.10148,170.95052
"369","Pukaki Aerodrome Aws","H40214",36596,2008-12-13,2024-08-23,TRUE,-44.24519,170.11671
"370","Fairlie Aws","H40075",37255,2009-05-07,2024-08-23,TRUE,-44.03774,170.77051
"371","Mueller Hut Ews","H30709",38102,2010-04-14,2024-08-23,TRUE,-43.72154,170.06493
"372","Mt Cook Aero Aws","H30715",41165,2012-09-07,2024-08-23,TRUE,-43.76507,170.1315
"373","Franz Josef @ Crawford Knob","F3042C",44374,2024-04-05,2024-08-23,TRUE,-43.46517,170.20631
"374","Lake Tekapo, Air Safaris","H40041",4970,1927-12-31,2024-07-31,TRUE,-44.002,170.441
"375","Orari Estate","H41131",5061,1972-08-01,2024-07-31,TRUE,-44.127,171.308
"376","Peel Forest","H31927",4772,1973-09-11,2024-07-31,TRUE,-43.90656,171.25902
"377","Mt Somers, Somer Downs","H31641",18394,2020-10-01,2024-07-31,TRUE,-43.674,171.413
"378","Otaio @ Springbank Road","H41511",43845,2019-08-06,2024-05-22,FALSE,-44.57194,171.15889
"379","Hakataramea Valley Cws","H40661",36209,2008-10-24,2022-05-31,FALSE,-44.63466,170.64731
"380","Methven, Three Springs Cws","H31656",37920,2010-01-30,2021-09-29,FALSE,-43.67767,171.5884
"381","Okarito","F30212",4053,1982-11-30,2019-01-31,FALSE,-43.22137,170.16533
"382","Naseby Forest 2","I50013",5258,1983-10-04,2017-02-28,FALSE,-45.028,170.142
"383","Franz Josef","F30312",4060,1982-01-02,2015-12-31,FALSE,-43.394,170.181
"384","St Bathans, Post Office","I49884",18225,2000-05-05,2010-11-14,FALSE,-44.87336,169.81084
"385","Woodbury 2","H41025",7727,1992-11-03,2010-11-11,FALSE,-44.0353,171.20693
"386","Fairlie 2","H40185",7726,1992-11-05,2009-08-01,FALSE,-44.10263,170.82531
"387","Waimate","H41701",5102,1908-01-31,2008-11-30,FALSE,-44.741,171.036
"388","Timaru 2","H41424",5095,1984-09-12,2008-10-31,FALSE,-44.40882,171.25434
"389","Twizel 2","H40213",4997,1991-10-28,2002-07-01,FALSE,-44.264,170.103
"390","Mt Cook,The Hermitage","H30711",4591,1929-04-30,2000-02-29,FALSE,-43.734,170.093
"391","St Bathans 3","I49883",5239,1992-08-07,1999-02-26,FALSE,-44.875,169.823
"392","Benmore Power Stn","I40511",5113,1986-07-09,1997-05-31,FALSE,-44.569,170.19
"393","Pukekura","F30061",4031,1982-11-26,1995-05-30,FALSE,-43.012,170.671
"394","Fox Glacier,Main Rd","F30402",4069,1973-06-30,1994-02-28,FALSE,-43.466,170.017
"395","Temuka","H41224",5075,1971-12-31,1994-01-31,FALSE,-44.25,171.285
"396","Ikawai","H40892",5041,1971-12-31,1994-01-31,FALSE,-44.873,170.939
"397","Kurow Area School","I40742",5122,1979-12-31,1994-01-31,FALSE,-44.733,170.467
"398","Oamaru, Spey St","I50093",5275,1982-03-18,1994-01-31,FALSE,-45.089,170.98
"399","Mt Hutt Skifield","H31451",4677,1980-07-19,1993-10-16,FALSE,-43.491,171.537
"400","Twizel Substation","H40212",4996,1985-03-31,1991-12-31,FALSE,-44.277,170.098
"401","Fairlie,Riverview Tce","H40183",4992,1979-02-28,1990-05-31,FALSE,-44.101,170.833
"402","Timaru Aero","H41323",5084,1971-12-31,1989-11-30,FALSE,-44.303,171.225
"403","Geraldine N.Z.F.S.","H41127",5060,1974-11-30,1989-06-30,FALSE,-44.102,171.239
"404","Ranfurly Maniototo","I50113",5280,1975-02-28,1989-06-30,FALSE,-45.126,170.098
"405","Aviemore 2","I40631",5118,1983-08-24,1988-09-12,FALSE,-44.659,170.353
"406","Mt John","H30941",4630,1962-12-31,1987-12-31,FALSE,-43.987,170.464
"407","Tasman Saddle Aws","H30532",4578,1985-06-02,1987-10-30,FALSE,-43.514,170.342
"408","Harihari N.Z.F.S.","F30153",4044,1971-12-31,1987-02-26,FALSE,-43.144,170.553
"409","Adair","H41411",5088,1971-12-31,1986-06-30,FALSE,-44.433,171.165
"410","Twizel","H40211",4995,1972-02-03,1986-05-31,FALSE,-44.249,170.092
"411","Omarama,Tara Hills","I49591",5211,1949-10-23,1985-12-31,FALSE,-44.529,169.888
"412","Timaru Gardens","H41421",5092,1885-04-07,1985-11-30,FALSE,-44.411,171.25
"413","Windsor M.A.F.","I50086",5272,1981-07-31,1985-11-30,FALSE,-45.017,170.817
"414","Oamaru Airport","I41901",5141,1971-12-31,1985-10-31,FALSE,-44.976,171.083
"415","Lake Pukaki M.W.D.","H40112",4981,1971-12-31,1984-12-31,FALSE,-44.181,170.132
"416","Franz Josef T.H.C.","F30311",4059,1953-06-30,1983-09-30,FALSE,-43.379,170.178
"417","Weston","I50084",5270,1974-07-31,1983-08-31,FALSE,-45.091,170.885
"418","Naseby Forest 1","I50012",5257,1922-12-31,1983-03-31,FALSE,-45.032,170.09
"419","Livingstone Sub Stn","I40961",5134,1972-08-09,1978-09-30,FALSE,-44.936,170.636
"420","Fairlie","H40182",4991,1971-12-31,1978-07-31,FALSE,-44.105,170.824
"421","Otiake Farm","I40751",5123,1972-12-07,1978-04-16,FALSE,-44.779,170.512
"422","Godley Peaks, Tekapo","H30841",4616,1969-09-30,1976-04-22,FALSE,-43.865,170.472
"423","Oamaru, Iona Hospital","I51002",5407,1971-12-31,1975-03-31,FALSE,-45.072,170.994
"424","Haldon Station","H40321",5002,1972-02-29,1974-04-30,FALSE,-44.358,170.264
"425","Hunter,Sodwall","H41502",5097,1972-12-07,1973-07-31,FALSE,-44.562,171.014
"426","Ranfurly, Eweburn","I50101",5276,1896-12-31,1922-12-31,FALSE,-45.117,170.083
"427","Windsor Ews","I50087",18594,2000-11-23,2024-08-24,TRUE,-45.00829,170.82281
"428","Lake Tekapo Ews","H40042",24945,2003-06-19,2024-08-24,TRUE,-44.00173,170.44319
"429","Timaru Ews","H41425",35703,2008-06-17,2024-08-24,TRUE,-44.40882,171.25434
"430","Orari Estate Ews","H41132",35704,2008-07-10,2024-08-24,TRUE,-44.12476,171.31075
"431","Waimate Cws","H41702",36914,2009-04-07,2024-08-24,TRUE,-44.74127,171.0631
"432","Mt Potts Ews","H30592",37002,2009-05-12,2024-08-24,TRUE,-43.50495,170.92635
"433","Upper Rakaia Ews","H30291",38225,2010-06-29,2024-08-24,TRUE,-43.29206,170.99523
"434","Lismore, Racemans House Cws","H31944",39845,2012-09-07,2024-08-24,TRUE,-43.9207,171.4856
"435","Oamaru Ews","I51003",40986,2015-09-12,2024-08-24,TRUE,-45.05679,171.02261
"436","Wakanui 2 Cws","H31986",41200,2015-11-03,2024-08-24,TRUE,-43.97167,171.81097
"437","Winchmore 2 Ews","H31772",42899,2017-06-30,2024-08-24,TRUE,-43.78935,171.79032
"438","Mayfield At Ruapuna Forecast","H31827",43538,2018-07-27,2024-08-24,TRUE,-43.85887,171.29938
"439","Te Pirita At Sharlands Road","H31682",45761,2023-07-18,2024-08-24,TRUE,-43.63482,171.89685
"440","Timaru Aero Aws","H41325",5086,1990-06-03,2024-08-23,TRUE,-44.30517,171.22141
"441","Oamaru Airport Aws","I41902",5142,1999-09-30,2024-08-23,TRUE,-44.97212,171.08108
"442","Oamaru Aws","I50194",25937,2005-09-22,2024-08-23,TRUE,-45.10148,170.95052
"443","Ashburton Aero Aws","H31983",26170,2006-02-10,2024-08-23,TRUE,-43.90328,171.80413
"444","Pukaki Aerodrome Aws","H40214",36596,2008-12-13,2024-08-23,TRUE,-44.24519,170.11671
"445","Fairlie Aws","H40075",37255,2009-05-07,2024-08-23,TRUE,-44.03774,170.77051
"446","Methven Cws","H31665",36645,2008-12-24,2024-08-21,TRUE,-43.63978,171.65205
"447","Ashburton Council","H31971",4778,1927-12-31,2024-07-31,TRUE,-43.89658,171.7472
"448","Lake Tekapo, Air Safaris","H40041",4970,1927-12-31,2024-07-31,TRUE,-44.002,170.441
"449","Palmerston","I50471",5323,1971-12-31,2024-07-31,TRUE,-45.47554,170.71444
"450","Orari Estate","H41131",5061,1972-08-01,2024-07-31,TRUE,-44.127,171.308
"451","Peel Forest","H31927",4772,1973-09-11,2024-07-31,TRUE,-43.90656,171.25902
"452","Mt Somers, Somer Downs","H31641",18394,2020-10-01,2024-07-31,TRUE,-43.674,171.413
"453","Chertsey Cws","H31793",39661,2012-07-13,2024-07-23,FALSE,-43.79393,171.9607
"454","Otaio @ Springbank Road","H41511",43845,2019-08-06,2024-05-22,FALSE,-44.57194,171.15889
"455","Hakataramea Valley Cws","H40661",36209,2008-10-24,2022-05-31,FALSE,-44.63466,170.64731
"456","Methven, Three Springs Cws","H31656",37920,2010-01-30,2021-09-29,FALSE,-43.67767,171.5884
"457","Dorie Cws At Riverstone","H32805",38866,2010-09-01,2021-09-29,FALSE,-43.83207,172.09431
"458","Winchmore Ews","H31883",4764,1949-10-16,2018-05-21,FALSE,-43.79346,171.79512
"459","Snowdon Raws","H31463",17610,1999-06-15,2017-11-30,FALSE,-43.47,171.672
"460","Wakanui Cws","H31984",38974,2011-07-08,2014-08-09,FALSE,-43.97167,171.81097
"461","Hororata, Illana","H31594",10617,1994-10-09,2011-08-31,FALSE,-43.52822,171.94615
"462","Woodbury 2","H41025",7727,1992-11-03,2010-11-11,FALSE,-44.0353,171.20693
"463","Fairlie 2","H40185",7726,1992-11-05,2009-08-01,FALSE,-44.10263,170.82531
"464","Waimate","H41701",5102,1908-01-31,2008-11-30,FALSE,-44.741,171.036
"465","Timaru 2","H41424",5095,1984-09-12,2008-10-31,FALSE,-44.40882,171.25434
"466","Twizel 2","H40213",4997,1991-10-28,2002-07-01,FALSE,-44.264,170.103
"467","Benmore Power Stn","I40511",5113,1986-07-09,1997-05-31,FALSE,-44.569,170.19
"468","Lake Coleridge","H31352",4670,1917-08-01,1996-08-30,FALSE,-43.365,171.529
"469","Temuka","H41224",5075,1971-12-31,1994-01-31,FALSE,-44.25,171.285
"470","Ikawai","H40892",5041,1971-12-31,1994-01-31,FALSE,-44.873,170.939
"471","Kurow Area School","I40742",5122,1979-12-31,1994-01-31,FALSE,-44.733,170.467
"472","Oamaru, Spey St","I50093",5275,1982-03-18,1994-01-31,FALSE,-45.089,170.98
"473","Mt Hutt Skifield","H31451",4677,1980-07-19,1993-10-16,FALSE,-43.491,171.537
"474","Hororata Substation","H31593",4704,1960-03-31,1993-09-02,FALSE,-43.547,171.981
"475","Twizel Substation","H40212",4996,1985-03-31,1991-12-31,FALSE,-44.277,170.098
"476","Ashburton","H31973",4780,1985-01-08,1990-12-30,FALSE,-43.90928,171.74409
"477","Highbank Power Stn","H31572",4698,1953-11-30,1990-10-31,FALSE,-43.575,171.736
"478","Fairlie,Riverview Tce","H40183",4992,1979-02-28,1990-05-31,FALSE,-44.101,170.833
"479","Herbert Forest","I50272",5304,1971-12-31,1989-12-28,FALSE,-45.244,170.774
"480","Timaru Aero","H41323",5084,1971-12-31,1989-11-30,FALSE,-44.303,171.225
"481","Geraldine N.Z.F.S.","H41127",5060,1974-11-30,1989-06-30,FALSE,-44.102,171.239
"482","Aviemore 2","I40631",5118,1983-08-24,1988-09-12,FALSE,-44.659,170.353
"483","Mt John","H30941",4630,1962-12-31,1987-12-31,FALSE,-43.987,170.464
"484","Adair","H41411",5088,1971-12-31,1986-06-30,FALSE,-44.433,171.165
"485","Twizel","H40211",4995,1972-02-03,1986-05-31,FALSE,-44.249,170.092
"486","Timaru Gardens","H41421",5092,1885-04-07,1985-11-30,FALSE,-44.411,171.25
"487","Windsor M.A.F.","I50086",5272,1981-07-31,1985-11-30,FALSE,-45.017,170.817
"488","Oamaru Airport","I41901",5141,1971-12-31,1985-10-31,FALSE,-44.976,171.083
"489","Lake Pukaki M.W.D.","H40112",4981,1971-12-31,1984-12-31,FALSE,-44.181,170.132
"490","Weston","I50084",5270,1974-07-31,1983-08-31,FALSE,-45.091,170.885
"491","Livingstone Sub Stn","I40961",5134,1972-08-09,1978-09-30,FALSE,-44.936,170.636
"492","Fairlie","H40182",4991,1971-12-31,1978-07-31,FALSE,-44.105,170.824
"493","Otiake Farm","I40751",5123,1972-12-07,1978-04-16,FALSE,-44.779,170.512
"494","Godley Peaks, Tekapo","H30841",4616,1969-09-30,1976-04-22,FALSE,-43.865,170.472
"495","Oamaru, Iona Hospital","I51002",5407,1971-12-31,1975-03-31,FALSE,-45.072,170.994
"496","Haldon Station","H40321",5002,1972-02-29,1974-04-30,FALSE,-44.358,170.264
"497","Hunter,Sodwall","H41502",5097,1972-12-07,1973-07-31,FALSE,-44.562,171.014
"498","Lauder Ews","I59065",5535,1985-08-31,2024-08-24,TRUE,-45.0401,169.68419
"499","Dunedin, Musselburgh Ews","I50954",15752,1997-08-08,2024-08-24,TRUE,-45.90129,170.5147
"500","Middlemarch Ews","I50513",18437,2000-08-30,2024-08-24,TRUE,-45.51814,170.13561
"501","Ranfurly Ews","I50115",18593,2000-11-22,2024-08-24,TRUE,-45.12427,170.10045
"502","Windsor Ews","I50087",18594,2000-11-23,2024-08-24,TRUE,-45.00829,170.82281
"503","Balclutha, Telford Ews","I69276",26163,2005-12-15,2024-08-24,TRUE,-46.29282,169.7315
"504","Oamaru Ews","I51003",40986,2015-09-12,2024-08-24,TRUE,-45.05679,171.02261
"505","Balclutha, Finegand Ews","I69277",45319,2022-08-27,2024-08-24,TRUE,-46.273,169.739
"506","Nugget Point Aws","I69482",5893,1983-07-14,2024-08-23,TRUE,-46.44767,169.81215
"507","Dunedin Aero Aws","I50922",7339,1991-11-23,2024-08-23,TRUE,-45.92675,170.19684
"508","Oamaru Airport Aws","I41902",5142,1999-09-30,2024-08-23,TRUE,-44.97212,171.08108
"509","Oamaru Aws","I50194",25937,2005-09-22,2024-08-23,TRUE,-45.10148,170.95052
"510","Palmerston","I50471",5323,1971-12-31,2024-07-31,TRUE,-45.47554,170.71444
"511","Swampy Summit Aws","I50845",35134,2008-01-31,2024-06-06,FALSE,-45.80079,170.47711
"512","Balclutha,Finegand","I69273",5867,1971-12-31,2022-08-23,FALSE,-46.273,169.739
"513","Naseby Forest 2","I50013",5258,1983-10-04,2017-02-28,FALSE,-45.028,170.142
"514","Rock And Pillar Raws","I50321",24998,2009-11-15,2012-11-15,FALSE,-45.38806,170.20528
"515","Edievale 2","I59732",5670,2004-02-02,2004-11-07,FALSE,-45.80245,169.36889
"516","Taiaroa Head","I50771",5355,1971-12-31,2002-11-13,FALSE,-45.777,170.728
"517","Dunedin,Musselburgh","I50951",5402,1947-01-18,1997-08-31,FALSE,-45.904,170.513
"518","Invermay Edr","I50836",5365,1985-04-30,1994-10-16,FALSE,-45.862,170.385
"519","Ikawai","H40892",5041,1971-12-31,1994-01-31,FALSE,-44.873,170.939
"520","Kurow Area School","I40742",5122,1979-12-31,1994-01-31,FALSE,-44.733,170.467
"521","Oamaru, Spey St","I50093",5275,1982-03-18,1994-01-31,FALSE,-45.089,170.98
"522","Clinton School","I69234",5861,1983-10-12,1994-01-24,FALSE,-46.2,169.381
"523","Dunedin Aero","I50921",5397,1971-12-31,1991-12-31,FALSE,-45.929,170.196
"524","Mahinerangi Dam","I59891",5683,1965-11-01,1990-03-30,FALSE,-45.883,169.975
"525","Cherry Farm Hospital","I50662",5334,1971-12-31,1989-12-31,FALSE,-45.61,170.623
"526","Herbert Forest","I50272",5304,1971-12-31,1989-12-28,FALSE,-45.244,170.774
"527","Owaka 2","I69464",5891,1975-02-28,1989-11-30,FALSE,-46.452,169.662
"528","Ranfurly Maniototo","I50113",5280,1975-02-28,1989-06-30,FALSE,-45.126,170.098
"529","Ettrick No.1","I59632",5644,1983-05-31,1989-06-30,FALSE,-45.635,169.363
"530","Nugget Point","I69481",5892,1971-12-31,1989-03-31,FALSE,-46.449,169.81
"531","Taieri Mouth","I60021",5695,1971-12-31,1987-03-31,FALSE,-46.077,170.193
"532","Berwick Forest","I50901",5392,1971-12-31,1987-02-28,FALSE,-45.971,170.074
"533","Beaumont N.Z.F.S.","I59842",5680,1980-12-11,1987-02-28,FALSE,-45.864,169.484
"534","Deep Stream M.A.F.","I59693",5661,1981-10-05,1986-06-29,FALSE,-45.684,169.978
"535","Lauder Pel","I59062",5532,1981-07-31,1986-05-31,FALSE,-45.041,169.686
"536","Gimmerburn Edl","I50102",5277,1981-12-31,1986-03-31,FALSE,-45.187,170.049
"537","Poolburn Edl","I59173",5549,1984-04-06,1986-03-31,FALSE,-45.133,169.716
"538","Invermay, Taieri 2","I50835",5364,1976-03-31,1985-12-30,FALSE,-45.862,170.385
"539","Milton","I69191",5856,1971-12-31,1985-11-30,FALSE,-46.114,169.971
"540","Windsor M.A.F.","I50086",5272,1981-07-31,1985-11-30,FALSE,-45.017,170.817
"541","Oamaru Airport","I41901",5141,1971-12-31,1985-10-31,FALSE,-44.976,171.083
"542","Stony Creek","I59392",5611,1981-12-31,1984-05-31,FALSE,-45.302,169.906
"543","Moa Creek","I59162",5545,1957-08-18,1984-04-30,FALSE,-45.192,169.654
"544","Weston","I50084",5270,1974-07-31,1983-08-31,FALSE,-45.091,170.885
"545","Naseby Forest 1","I50012",5257,1922-12-31,1983-03-31,FALSE,-45.032,170.09
"546","Hindon Farm","I50721",5336,1971-12-31,1981-09-30,FALSE,-45.748,170.197
"547","Rankleburn Forest","I59941",5688,1971-12-31,1980-11-30,FALSE,-45.975,169.439
"548","Livingstone Sub Stn","I40961",5134,1972-08-09,1978-09-30,FALSE,-44.936,170.636
"549","Otiake Farm","I40751",5123,1972-12-07,1978-04-16,FALSE,-44.779,170.512
"550","Manorburn Dam","I59361",5608,1928-10-31,1977-04-28,FALSE,-45.363,169.606
"551","Invermay, Taieri","I50831",5360,1966-01-01,1977-03-31,FALSE,-45.858,170.361
"552","Browns Block","I59992",5692,1975-06-03,1975-09-11,FALSE,-45.953,169.938
"553","Oamaru, Iona Hospital","I51002",5407,1971-12-31,1975-03-31,FALSE,-45.072,170.994
"554","Waipiata 2","I50212",5297,1924-12-31,1966-09-29,FALSE,-45.239,170.145
"555","Dunedin, Beta St","I50856",5379,1940-12-31,1947-11-30,FALSE,-45.867,170.5
"556","Dunedin, Btl Gardens","I50852",5375,1912-12-31,1942-11-30,FALSE,-45.86,170.522
"557","Ranfurly, Eweburn","I50101",5276,1896-12-31,1922-12-31,FALSE,-45.117,170.083
"558","Dunedin, Leith Valley","I50857",5380,1886-04-30,1913-01-31,FALSE,-45.85,170.5
"559","Dunedin, Roslyn","I50855",5378,1862-09-30,1886-04-30,FALSE,-45.85,170.5
"560","Dunedin, Princes Street","I50850",22645,1852-10-31,1864-07-31,FALSE,-45.867,170.5
"561","Invercargill Aero","I68433",5814,1948-05-31,2024-08-24,TRUE,-46.41741,168.33052
"562","Manapouri, West Arm Jetty Ews","I5752A",12482,1995-11-17,2024-08-24,TRUE,-45.52299,167.27485
"563","Eglinton, Knobs Flat Cws","I48905",37382,2009-08-13,2024-08-24,TRUE,-44.97781,168.018
"564","Castle Mount Ews","F47873",38830,2011-04-14,2024-08-24,TRUE,-44.83407,167.77752
"565","Mt Larkins Ews","I48842",40257,2013-05-15,2024-08-24,TRUE,-44.88526,168.48044
"566","Waipounamu Cws","I58872",40639,2014-06-28,2024-08-24,TRUE,-45.82525,168.71649
"567","Five Rivers Cws","I58632",40845,2014-12-12,2024-08-24,TRUE,-45.6259,168.36702
"568","Te Anau At Park Hq Cws","I57477",41064,2015-07-10,2024-08-24,TRUE,-45.42214,167.71788
"569","Invercargill Aero 2 Ews","I68437",12444,2015-08-20,2024-08-24,TRUE,-46.41727,168.33045
"570","Queenstown Ews","I58062",41331,2016-02-25,2024-08-24,TRUE,-45.03476,168.66364
"571","Milford Sound Ews","F47694",40987,2019-08-28,2024-08-24,TRUE,-44.67399,167.92299
"572","Lumsden Aws","I58744",5496,1981-12-31,2024-08-23,TRUE,-45.74512,168.44975
"573","Puysegur Point Aws","F66162",4141,1990-12-10,2024-08-23,TRUE,-46.1562,166.61299
"574","Manapouri Aero Aws","I57563",5430,1990-12-12,2024-08-23,TRUE,-45.53285,167.64162
"575","Secretary Island Aws","F56280",9533,1993-10-20,2024-08-23,TRUE,-45.22092,166.88498
"576","Invercargill Aero Aws","I68435",11104,1995-02-06,2024-08-23,TRUE,-46.41104,168.31779
"577","Milford Sound Aws","F47693",18309,2000-07-18,2024-08-23,TRUE,-44.6733,167.9243
"578","Murchison Mtns Ews","I57261",35614,2008-06-21,2024-08-23,TRUE,-45.22172,167.62988
"579","Takahe Valley Cws","I57262",37047,2009-05-15,2024-08-23,TRUE,-45.29644,167.68254
"580","Birchwood Wxt Aws","I57992",38674,2010-05-15,2024-08-23,TRUE,-45.94412,167.90081
"581","Waitutu Cws","I67101",37381,2009-08-07,2023-11-10,FALSE,-46.1918,167.06611
"582","Thornbury","I68202",31912,2007-09-23,2022-03-31,FALSE,-46.29144,168.09593
"583","Queenstown","I58061",5446,1871-08-31,2021-05-31,FALSE,-45.03476,168.66364
"584","Winton 2","I68133",5768,1971-12-31,2019-12-31,FALSE,-46.157,168.328
"585","Milford Sound","F47691",4107,1933-12-31,2019-10-09,FALSE,-44.67384,167.92406
"586","Riversdale Aquifer @ York Road","I58973",38645,2011-02-18,2017-01-20,FALSE,-45.90358,168.73871
"587","Wreys Bush Raws","I68011",18603,2000-10-30,2005-05-25,FALSE,-46.02861,168.11083
"588","Manapouri,West Arm 2","I57522",5426,1971-12-31,1996-07-31,FALSE,-45.525,167.276
"589","Te Anau, Doc","I57473",5419,1972-01-01,1994-03-31,FALSE,-45.426,167.718
"590","Deep Cove 2","F57412",4138,1985-07-31,1994-01-31,FALSE,-45.467,167.152
"591","Tuatapere","I67165",5738,1980-10-14,1992-11-29,FALSE,-46.129,167.674
"592","Burwood Bush","I58502",5475,1986-10-07,1990-08-31,FALSE,-45.571,168.071
"593","Mt Luxmore","I57362",5413,1988-12-31,1989-12-31,FALSE,-45.388,167.619
"594","Iris Burn","I57451",5416,1988-11-30,1989-12-30,FALSE,-45.401,167.507
"595","Knobs Flat","I48901",5167,1982-08-31,1988-11-30,FALSE,-44.98,168.019
"596","Homer Tunnel Western","F47794",4118,1984-07-31,1988-11-30,FALSE,-44.764,167.974
"597","Homer Tunnel, Eastern","F47791",4115,1987-11-30,1988-11-30,FALSE,-44.765,167.994
"598","Takahe Valley","I57361",5412,1972-10-14,1987-05-30,FALSE,-45.299,167.681
"599","Puysegur Point","F66161",4140,1978-05-31,1987-04-27,FALSE,-46.158,166.611
"600","Hokonui Forest","I68252",5790,1971-12-31,1987-03-26,FALSE,-46.21,168.583
"601","Otautau N.Z.F.S.","I68102",5761,1949-09-30,1987-02-28,FALSE,-46.164,168.005
"602","Borland Burn","I57751",5435,1974-10-31,1985-09-30,FALSE,-45.78,167.538
"603","Mid Dome","I58552",5479,1949-10-18,1976-10-31,FALSE,-45.571,168.504
"604","Borland Saddle","I57731",5434,1971-12-31,1972-04-30,FALSE,-45.733,167.367
"605","Invercargill","I68431",5812,1904-12-31,1952-06-30,FALSE,-46.4,168.367
"606","Lauder Ews","I59065",5535,1985-08-31,2024-08-24,TRUE,-45.0401,169.68419
"607","Cromwell Ews","I59013",26381,2006-04-06,2024-08-24,TRUE,-45.03392,169.1955
"608","Albert Burn","I48391",35098,2008-01-25,2024-08-24,TRUE,-44.38112,168.92633
"609","Eglinton, Knobs Flat Cws","I48905",37382,2009-08-13,2024-08-24,TRUE,-44.97781,168.018
"610","Castle Mount Ews","F47873",38830,2011-04-14,2024-08-24,TRUE,-44.83407,167.77752
"611","Clyde 2 Ews","I5923C",39564,2011-05-25,2024-08-24,TRUE,-45.20342,169.3182
"612","Mt Larkins Ews","I48842",40257,2013-05-15,2024-08-24,TRUE,-44.88526,168.48044
"613","Waipounamu Cws","I58872",40639,2014-06-28,2024-08-24,TRUE,-45.82525,168.71649
"614","Five Rivers Cws","I58632",40845,2014-12-12,2024-08-24,TRUE,-45.6259,168.36702
"615","Te Anau At Park Hq Cws","I57477",41064,2015-07-10,2024-08-24,TRUE,-45.42214,167.71788
"616","Wanaka Cws","I49614",41237,2015-10-29,2024-08-24,TRUE,-44.69965,169.14273
"617","Queenstown Ews","I58062",41331,2016-02-25,2024-08-24,TRUE,-45.03476,168.66364
"618","Gore Ews","I68197",42975,2017-06-02,2024-08-24,TRUE,-46.12375,168.91938
"619","Alexandra Ews","I5923E",43904,2019-04-19,2024-08-24,TRUE,-45.25458,169.38448
"620","Milford Sound Ews","F47694",40987,2019-08-28,2024-08-24,TRUE,-44.67399,167.92299
"621","Tapanui Ews","I59923",44640,2020-12-22,2024-08-24,TRUE,-45.944,169.257
"622","Lumsden Aws","I58744",5496,1981-12-31,2024-08-23,TRUE,-45.74512,168.44975
"623","Gore Aws","I68182",5778,1986-07-11,2024-08-23,TRUE,-46.11171,168.8876
"624","Manapouri Aero Aws","I57563",5430,1990-12-12,2024-08-23,TRUE,-45.53285,167.64162
"625","Queenstown Aero Aws","I58075",5451,1991-06-19,2024-08-23,TRUE,-45.01762,168.7402
"626","Wanaka Aero Aws","I49723",7426,1992-05-06,2024-08-23,TRUE,-44.722,169.244
"627","Milford Sound Aws","F47693",18309,2000-07-18,2024-08-23,TRUE,-44.6733,167.9243
"628","Murchison Mtns Ews","I57261",35614,2008-06-21,2024-08-23,TRUE,-45.22172,167.62988
"629","Takahe Valley Cws","I57262",37047,2009-05-15,2024-08-23,TRUE,-45.29644,167.68254
"630","Roxburgh Wxt Aws","I59534",38673,2010-05-12,2024-08-23,TRUE,-45.51717,169.31316
"631","Birchwood Wxt Aws","I57992",38674,2010-05-15,2024-08-23,TRUE,-45.94412,167.90081
"632","Alexandra Aws","I5923D",41163,2013-05-13,2024-08-23,TRUE,-45.21452,169.37549
"633","Ophir 2","I59161",5544,1924-04-01,2024-07-31,TRUE,-45.10611,169.61056
"634","Alexandra","I59236",5578,1985-01-03,2024-07-31,TRUE,-45.246,169.38956
"635","Ettrick No.2","I59633",5645,1985-01-21,2024-07-31,TRUE,-45.623,169.348
"636","Queenstown","I58061",5446,1871-08-31,2021-05-31,FALSE,-45.03476,168.66364
"637","Alexandra Cws","I5923B",36592,2008-11-18,2021-02-22,FALSE,-45.25366,169.39205
"638","Tapanui","I59921",5686,1900-03-31,2020-12-07,FALSE,-45.944,169.257
"639","Winton 2","I68133",5768,1971-12-31,2019-12-31,FALSE,-46.157,168.328
"640","Milford Sound","F47691",4107,1933-12-31,2019-10-09,FALSE,-44.67384,167.92406
"641","Riversdale Aquifer @ York Road","I58973",38645,2011-02-18,2017-01-20,FALSE,-45.90358,168.73871
"642","Clyde Ews","I59239",12431,1996-06-15,2012-10-11,FALSE,-45.20724,169.31478
"643","St Bathans, Post Office","I49884",18225,2000-05-05,2010-11-14,FALSE,-44.87336,169.81084
"644","Wanaka Airport","I49724",25480,2009-11-16,2010-01-25,FALSE,-44.725,169.243
"645","Cromwell 2","I59024",5529,1984-07-03,2007-07-31,FALSE,-45.035,169.195
"646","Clyde Dam","I59133",5543,1978-04-30,2007-06-30,FALSE,-45.19,169.311
"647","Wreys Bush Raws","I68011",18603,2000-10-30,2005-05-25,FALSE,-46.02861,168.11083
"648","Edievale 2","I59732",5670,2004-02-02,2004-11-07,FALSE,-45.80245,169.36889
"649","St Bathans 3","I49883",5239,1992-08-07,1999-02-26,FALSE,-44.875,169.823
"650","Clyde, Earnscleugh","I59235",5577,1983-02-28,1996-05-31,FALSE,-45.207,169.313
"651","Te Anau, Doc","I57473",5419,1972-01-01,1994-03-31,FALSE,-45.426,167.718
"652","Alexandra, Theyers St","I59238",5580,1983-10-09,1994-01-31,FALSE,-45.254,169.381
"653","Wanaka, Park Hq","I49613",5217,1990-09-06,1994-01-31,FALSE,-44.696,169.142
"654","Queenstown Aero","I58074",5450,1971-12-31,1992-09-20,FALSE,-45.024,168.735
"655","Bendigo 2","I49932",5243,1978-04-30,1992-05-31,FALSE,-44.93352,169.30377
"656","Northburn","I59023",5528,1978-10-31,1992-05-31,FALSE,-45.00785,169.23298
"657","Queensbury Ews","I49822",5234,1978-10-31,1992-05-31,FALSE,-44.873,169.3
"658","Burwood Bush","I58502",5475,1986-10-07,1990-08-31,FALSE,-45.571,168.071
"659","Wanaka","I49711",5223,1972-08-11,1990-08-30,FALSE,-44.705,169.146
"660","Mt Luxmore","I57362",5413,1988-12-31,1989-12-31,FALSE,-45.388,167.619
"661","Ettrick No.1","I59632",5644,1983-05-31,1989-06-30,FALSE,-45.635,169.363
"662","Knobs Flat","I48901",5167,1982-08-31,1988-11-30,FALSE,-44.98,168.019
"663","Homer Tunnel Western","F47794",4118,1984-07-31,1988-11-30,FALSE,-44.764,167.974
"664","Homer Tunnel, Eastern","F47791",4115,1987-11-30,1988-11-30,FALSE,-44.765,167.994
"665","Lake Hawea","I49621",5218,1971-12-31,1988-05-31,FALSE,-44.612,169.241
"666","Cromwell Sub Stn","I59012",5524,1976-04-12,1988-02-25,FALSE,-45.062,169.189
"667","Roxburgh Power Stn","I59431",5612,1950-08-31,1987-11-19,FALSE,-45.481,169.314
"668","Gibbston Nevis Bluff","I58092",5456,1984-10-11,1987-05-31,FALSE,-45.041,168.979
"669","Takahe Valley","I57361",5412,1972-10-14,1987-05-30,FALSE,-45.299,167.681
"670","Hokonui Forest","I68252",5790,1971-12-31,1987-03-26,FALSE,-46.21,168.583
"671","Beaumont N.Z.F.S.","I59842",5680,1980-12-11,1987-02-28,FALSE,-45.864,169.484
"672","Gore,Grasslands D.S.I.R.","I68192",5780,1971-12-31,1986-12-31,FALSE,-46.115,168.892
"673","Lauder Pel","I59062",5532,1981-07-31,1986-05-31,FALSE,-45.041,169.686
"674","Poolburn Edl","I59173",5549,1984-04-06,1986-03-31,FALSE,-45.133,169.716
"675","Cromwell M.W.D.","I59021",5526,1949-05-05,1985-06-30,FALSE,-45.035,169.195
"676","Moa Creek","I59162",5545,1957-08-18,1984-04-30,FALSE,-45.192,169.654
"677","Alexandra 1","I59234",5576,1929-12-31,1983-09-30,FALSE,-45.258,169.389
"678","Otama","I58981",5521,1980-07-31,1983-05-31,FALSE,-45.922,168.829
"679","Earnscleugh D.S.I.R.","I59232",5574,1947-04-15,1983-03-31,FALSE,-45.237,169.332
"680","Moa Flat","I59722",5666,1950-07-31,1980-08-31,FALSE,-45.761,169.282
"681","Clyde","I59132",5542,1973-07-31,1977-10-31,FALSE,-45.163,169.306
"682","Manorburn Dam","I59361",5608,1928-10-31,1977-04-28,FALSE,-45.363,169.606
"683","Mid Dome","I58552",5479,1949-10-18,1976-10-31,FALSE,-45.571,168.504
"684","Albert Town","I49612",5216,1971-12-31,1972-08-10,FALSE,-44.683,169.19
"685","Gore 1","I68191",5779,1943-12-31,1971-08-31,FALSE,-46.106,168.937
"686","East Gore","I68093",5759,1907-05-04,1965-11-30,FALSE,-46.09,168.954
"687","Lauder Ews","I59065",5535,1985-08-31,2024-08-24,TRUE,-45.0401,169.68419
"688","Middlemarch Ews","I50513",18437,2000-08-30,2024-08-24,TRUE,-45.51814,170.13561
"689","Ranfurly Ews","I50115",18593,2000-11-22,2024-08-24,TRUE,-45.12427,170.10045
"690","Balclutha, Telford Ews","I69276",26163,2005-12-15,2024-08-24,TRUE,-46.29282,169.7315
"691","Cromwell Ews","I59013",26381,2006-04-06,2024-08-24,TRUE,-45.03392,169.1955
"692","Albert Burn","I48391",35098,2008-01-25,2024-08-24,TRUE,-44.38112,168.92633
"693","Clyde 2 Ews","I5923C",39564,2011-05-25,2024-08-24,TRUE,-45.20342,169.3182
"694","Mt Larkins Ews","I48842",40257,2013-05-15,2024-08-24,TRUE,-44.88526,168.48044
"695","Waipounamu Cws","I58872",40639,2014-06-28,2024-08-24,TRUE,-45.82525,168.71649
"696","Five Rivers Cws","I58632",40845,2014-12-12,2024-08-24,TRUE,-45.6259,168.36702
"697","Wanaka Cws","I49614",41237,2015-10-29,2024-08-24,TRUE,-44.69965,169.14273
"698","Queenstown Ews","I58062",41331,2016-02-25,2024-08-24,TRUE,-45.03476,168.66364
"699","Gore Ews","I68197",42975,2017-06-02,2024-08-24,TRUE,-46.12375,168.91938
"700","Alexandra Ews","I5923E",43904,2019-04-19,2024-08-24,TRUE,-45.25458,169.38448
"701","Tapanui Ews","I59923",44640,2020-12-22,2024-08-24,TRUE,-45.944,169.257
"702","Balclutha, Finegand Ews","I69277",45319,2022-08-27,2024-08-24,TRUE,-46.273,169.739
"703","Lumsden Aws","I58744",5496,1981-12-31,2024-08-23,TRUE,-45.74512,168.44975
"704","Tara Hills Aws","I49592",5212,1985-04-30,2024-08-23,TRUE,-44.52612,169.88948
"705","Gore Aws","I68182",5778,1986-07-11,2024-08-23,TRUE,-46.11171,168.8876
"706","Queenstown Aero Aws","I58075",5451,1991-06-19,2024-08-23,TRUE,-45.01762,168.7402
"707","Dunedin Aero Aws","I50922",7339,1991-11-23,2024-08-23,TRUE,-45.92675,170.19684
"708","Wanaka Aero Aws","I49723",7426,1992-05-06,2024-08-23,TRUE,-44.722,169.244
"709","Roxburgh Wxt Aws","I59534",38673,2010-05-12,2024-08-23,TRUE,-45.51717,169.31316
"710","Alexandra Aws","I5923D",41163,2013-05-13,2024-08-23,TRUE,-45.21452,169.37549
"711","Ophir 2","I59161",5544,1924-04-01,2024-07-31,TRUE,-45.10611,169.61056
"712","Alexandra","I59236",5578,1985-01-03,2024-07-31,TRUE,-45.246,169.38956
"713","Ettrick No.2","I59633",5645,1985-01-21,2024-07-31,TRUE,-45.623,169.348
"714","Balclutha,Finegand","I69273",5867,1971-12-31,2022-08-23,FALSE,-46.273,169.739
"715","Queenstown","I58061",5446,1871-08-31,2021-05-31,FALSE,-45.03476,168.66364
"716","Alexandra Cws","I5923B",36592,2008-11-18,2021-02-22,FALSE,-45.25366,169.39205
"717","Tapanui","I59921",5686,1900-03-31,2020-12-07,FALSE,-45.944,169.257
"718","Naseby Forest 2","I50013",5258,1983-10-04,2017-02-28,FALSE,-45.028,170.142
"719","Riversdale Aquifer @ York Road","I58973",38645,2011-02-18,2017-01-20,FALSE,-45.90358,168.73871
"720","Rock And Pillar Raws","I50321",24998,2009-11-15,2012-11-15,FALSE,-45.38806,170.20528
"721","Clyde Ews","I59239",12431,1996-06-15,2012-10-11,FALSE,-45.20724,169.31478
"722","St Bathans, Post Office","I49884",18225,2000-05-05,2010-11-14,FALSE,-44.87336,169.81084
"723","Wanaka Airport","I49724",25480,2009-11-16,2010-01-25,FALSE,-44.725,169.243
"724","Cromwell 2","I59024",5529,1984-07-03,2007-07-31,FALSE,-45.035,169.195
"725","Clyde Dam","I59133",5543,1978-04-30,2007-06-30,FALSE,-45.19,169.311
"726","Edievale 2","I59732",5670,2004-02-02,2004-11-07,FALSE,-45.80245,169.36889
"727","St Bathans 3","I49883",5239,1992-08-07,1999-02-26,FALSE,-44.875,169.823
"728","Benmore Power Stn","I40511",5113,1986-07-09,1997-05-31,FALSE,-44.569,170.19
"729","Clyde, Earnscleugh","I59235",5577,1983-02-28,1996-05-31,FALSE,-45.207,169.313
"730","Invermay Edr","I50836",5365,1985-04-30,1994-10-16,FALSE,-45.862,170.385
"731","Alexandra, Theyers St","I59238",5580,1983-10-09,1994-01-31,FALSE,-45.254,169.381
"732","Wanaka, Park Hq","I49613",5217,1990-09-06,1994-01-31,FALSE,-44.696,169.142
"733","Clinton School","I69234",5861,1983-10-12,1994-01-24,FALSE,-46.2,169.381
"734","Queenstown Aero","I58074",5450,1971-12-31,1992-09-20,FALSE,-45.024,168.735
"735","Bendigo 2","I49932",5243,1978-04-30,1992-05-31,FALSE,-44.93352,169.30377
"736","Northburn","I59023",5528,1978-10-31,1992-05-31,FALSE,-45.00785,169.23298
"737","Queensbury Ews","I49822",5234,1978-10-31,1992-05-31,FALSE,-44.873,169.3
"738","Dunedin Aero","I50921",5397,1971-12-31,1991-12-31,FALSE,-45.929,170.196
"739","Wanaka","I49711",5223,1972-08-11,1990-08-30,FALSE,-44.705,169.146
"740","Mahinerangi Dam","I59891",5683,1965-11-01,1990-03-30,FALSE,-45.883,169.975
"741","Wyndham","I68384",5810,1987-06-30,1989-11-30,FALSE,-46.33,168.85
"742","Ranfurly Maniototo","I50113",5280,1975-02-28,1989-06-30,FALSE,-45.126,170.098
"743","Ettrick No.1","I59632",5644,1983-05-31,1989-06-30,FALSE,-45.635,169.363
"744","Aviemore 2","I40631",5118,1983-08-24,1988-09-12,FALSE,-44.659,170.353
"745","Lake Hawea","I49621",5218,1971-12-31,1988-05-31,FALSE,-44.612,169.241
"746","Cromwell Sub Stn","I59012",5524,1976-04-12,1988-02-25,FALSE,-45.062,169.189
"747","Roxburgh Power Stn","I59431",5612,1950-08-31,1987-11-19,FALSE,-45.481,169.314
"748","Gibbston Nevis Bluff","I58092",5456,1984-10-11,1987-05-31,FALSE,-45.041,168.979
"749","Taieri Mouth","I60021",5695,1971-12-31,1987-03-31,FALSE,-46.077,170.193
"750","Berwick Forest","I50901",5392,1971-12-31,1987-02-28,FALSE,-45.971,170.074
"751","Beaumont N.Z.F.S.","I59842",5680,1980-12-11,1987-02-28,FALSE,-45.864,169.484
"752","Gore,Grasslands D.S.I.R.","I68192",5780,1971-12-31,1986-12-31,FALSE,-46.115,168.892
"753","Deep Stream M.A.F.","I59693",5661,1981-10-05,1986-06-29,FALSE,-45.684,169.978
"754","Lauder Pel","I59062",5532,1981-07-31,1986-05-31,FALSE,-45.041,169.686
"755","Gimmerburn Edl","I50102",5277,1981-12-31,1986-03-31,FALSE,-45.187,170.049
"756","Poolburn Edl","I59173",5549,1984-04-06,1986-03-31,FALSE,-45.133,169.716
"757","Omarama,Tara Hills","I49591",5211,1949-10-23,1985-12-31,FALSE,-44.529,169.888
"758","Invermay, Taieri 2","I50835",5364,1976-03-31,1985-12-30,FALSE,-45.862,170.385
"759","Milton","I69191",5856,1971-12-31,1985-11-30,FALSE,-46.114,169.971
"760","Cromwell M.W.D.","I59021",5526,1949-05-05,1985-06-30,FALSE,-45.035,169.195
"761","Stony Creek","I59392",5611,1981-12-31,1984-05-31,FALSE,-45.302,169.906
"762","Moa Creek","I59162",5545,1957-08-18,1984-04-30,FALSE,-45.192,169.654
"763","Alexandra 1","I59234",5576,1929-12-31,1983-09-30,FALSE,-45.258,169.389
"764","Otama","I58981",5521,1980-07-31,1983-05-31,FALSE,-45.922,168.829
"765","Naseby Forest 1","I50012",5257,1922-12-31,1983-03-31,FALSE,-45.032,170.09
"766","Earnscleugh D.S.I.R.","I59232",5574,1947-04-15,1983-03-31,FALSE,-45.237,169.332
"767","Hindon Farm","I50721",5336,1971-12-31,1981-09-30,FALSE,-45.748,170.197
"768","Rankleburn Forest","I59941",5688,1971-12-31,1980-11-30,FALSE,-45.975,169.439
"769","Moa Flat","I59722",5666,1950-07-31,1980-08-31,FALSE,-45.761,169.282
"770","Clyde","I59132",5542,1973-07-31,1977-10-31,FALSE,-45.163,169.306
"771","Manorburn Dam","I59361",5608,1928-10-31,1977-04-28,FALSE,-45.363,169.606
"772","Invermay, Taieri","I50831",5360,1966-01-01,1977-03-31,FALSE,-45.858,170.361
"773","Mid Dome","I58552",5479,1949-10-18,1976-10-31,FALSE,-45.571,168.504
"774","Browns Block","I59992",5692,1975-06-03,1975-09-11,FALSE,-45.953,169.938
"775","Albert Town","I49612",5216,1971-12-31,1972-08-10,FALSE,-44.683,169.19
"776","Gore 1","I68191",5779,1943-12-31,1971-08-31,FALSE,-46.106,168.937
"777","Waipiata 2","I50212",5297,1924-12-31,1966-09-29,FALSE,-45.239,170.145
"778","East Gore","I68093",5759,1907-05-04,1965-11-30,FALSE,-46.09,168.954
"779","Ranfurly, Eweburn","I50101",5276,1896-12-31,1922-12-31,FALSE,-45.117,170.083
"780","Invercargill Aero","I68433",5814,1948-05-31,2024-08-24,TRUE,-46.41741,168.33052
"781","Tiwai Point Ews","I68533",5823,1971-12-31,2024-08-24,TRUE,-46.587,168.376
"782","Waipounamu Cws","I58872",40639,2014-06-28,2024-08-24,TRUE,-45.82525,168.71649
"783","Five Rivers Cws","I58632",40845,2014-12-12,2024-08-24,TRUE,-45.6259,168.36702
"784","Te Anau At Park Hq Cws","I57477",41064,2015-07-10,2024-08-24,TRUE,-45.42214,167.71788
"785","Invercargill Aero 2 Ews","I68437",12444,2015-08-20,2024-08-24,TRUE,-46.41727,168.33045
"786","Gore Ews","I68197",42975,2017-06-02,2024-08-24,TRUE,-46.12375,168.91938
"787","Tapanui Ews","I59923",44640,2020-12-22,2024-08-24,TRUE,-45.944,169.257
"788","Stewart Island Ews","I68915",44761,2021-07-27,2024-08-24,TRUE,-46.90051,168.12851
"789","Tautuku Ews","I69545",44762,2021-12-02,2024-08-24,TRUE,-46.57617,169.44386
"790","Lumsden Aws","I58744",5496,1981-12-31,2024-08-23,TRUE,-45.74512,168.44975
"791","Gore Aws","I68182",5778,1986-07-11,2024-08-23,TRUE,-46.11171,168.8876
"792","Manapouri Aero Aws","I57563",5430,1990-12-12,2024-08-23,TRUE,-45.53285,167.64162
"793","Invercargill Aero Aws","I68435",11104,1995-02-06,2024-08-23,TRUE,-46.41104,168.31779
"794","Birchwood Wxt Aws","I57992",38674,2010-05-15,2024-08-23,TRUE,-45.94412,167.90081
"795","Stewart Is","I68913",5836,1975-05-05,2024-05-31,FALSE,-46.90051,168.12851
"796","Tautuku","I69544",5904,1976-04-07,2022-11-30,FALSE,-46.57617,169.44386
"797","Thornbury","I68202",31912,2007-09-23,2022-03-31,FALSE,-46.29144,168.09593
"798","Tapanui","I59921",5686,1900-03-31,2020-12-07,FALSE,-45.944,169.257
"799","Winton 2","I68133",5768,1971-12-31,2019-12-31,FALSE,-46.157,168.328
"800","Riversdale Aquifer @ York Road","I58973",38645,2011-02-18,2017-01-20,FALSE,-45.90358,168.73871
"801","Wreys Bush Raws","I68011",18603,2000-10-30,2005-05-25,FALSE,-46.02861,168.11083
"802","Te Anau, Doc","I57473",5419,1972-01-01,1994-03-31,FALSE,-45.426,167.718
"803","Clinton School","I69234",5861,1983-10-12,1994-01-24,FALSE,-46.2,169.381
"804","Codfish Island","I67761",5745,1987-12-02,1993-08-31,FALSE,-46.767,167.633
"805","Tuatapere","I67165",5738,1980-10-14,1992-11-29,FALSE,-46.129,167.674
"806","Burwood Bush","I58502",5475,1986-10-07,1990-08-31,FALSE,-45.571,168.071
"807","Wyndham","I68384",5810,1987-06-30,1989-11-30,FALSE,-46.33,168.85
"808","Hokonui Forest","I68252",5790,1971-12-31,1987-03-26,FALSE,-46.21,168.583
"809","Otautau N.Z.F.S.","I68102",5761,1949-09-30,1987-02-28,FALSE,-46.164,168.005
"810","Gore,Grasslands D.S.I.R.","I68192",5780,1971-12-31,1986-12-31,FALSE,-46.115,168.892
"811","Woodlands","I68362",5804,1971-12-31,1986-08-31,FALSE,-46.371,168.594
"812","Borland Burn","I57751",5435,1974-10-31,1985-09-30,FALSE,-45.78,167.538
"813","Scollays Flat","I77171",5908,1980-03-06,1985-07-31,FALSE,-47.15,167.75
"814","Otama","I58981",5521,1980-07-31,1983-05-31,FALSE,-45.922,168.829
"815","Rankleburn Forest","I59941",5688,1971-12-31,1980-11-30,FALSE,-45.975,169.439
"816","Moa Flat","I59722",5666,1950-07-31,1980-08-31,FALSE,-45.761,169.282
"817","Mid Dome","I58552",5479,1949-10-18,1976-10-31,FALSE,-45.571,168.504
"818","Borland Saddle","I57731",5434,1971-12-31,1972-04-30,FALSE,-45.733,167.367
"819","Gore 1","I68191",5779,1943-12-31,1971-08-31,FALSE,-46.106,168.937
"820","East Gore","I68093",5759,1907-05-04,1965-11-30,FALSE,-46.09,168.954
"821","Invercargill","I68431",5812,1904-12-31,1952-06-30,FALSE,-46.4,168.367
